[
  {
    "name": "Dwarka Beach",
    "description": "A sacred beach near the famous Dwarkadhish Temple in Gujarat.",
    "latitude": 22.2394,
    "longitude": 68.9671,
    "state": "Gujarat",
    "city": "Dwarka",
    "is_active": true,
    "image_url": "https://res.cloudinary.com/duouemoop/image/upload/v1743533411/1_tzjawp.jpg",
    "is_favorite": false,
    "rating": 4.5,
    "view_count": 1200,
    "location": "Dwarka, Gujarat",
    "id": 1
  },
  {
    "name": "Chorwad Beach",
    "description": "A serene beach in Gujarat, known for its peaceful surroundings.",
    "latitude": 21.0159,
    "longitude": 70.2206,
    "state": "Gujarat",
    "city": "Chorwad",
    "is_active": true,
    "image_url": "https://res.cloudinary.com/duouemoop/image/upload/v1743533364/2_vessfs.jpg",
    "is_favorite": false,
    "rating": 4.2,
    "view_count": 800,
    "location": "Chorwad, Gujarat",
    "id": 2
  },
  {
    "name": "Somnath Beach",
    "description": "A scenic beach near the famous Somnath Temple in Gujarat.",
    "latitude": 20.8880,
    "longitude": 70.4012,
    "state": "Gujarat",
    "city": "Somnath",
    "is_active": true,
    "image_url": "https://res.cloudinary.com/duouemoop/image/upload/v1743533381/3_w1nomj.jpg",
    "is_favorite": false,
    "rating": 4.7,
    "view_count": 1500,
    "location": "Somnath, Gujarat",
    "id": 3
  },
  {
    "name": "Juhu Beach",
    "description": "A famous beach in Mumbai, known for its street food and Bollywood celebrity sightings.",
    "latitude": 19.0968,
    "longitude": 72.8265,
    "state": "Maharashtra",
    "city": "Mumbai",
    "is_active": true,
    "image_url": "https://res.cloudinary.com/duouemoop/image/upload/v1743533361/4_uy7al6.jpg",
    "is_favorite": true,
    "rating": 4.6,
    "view_count": 2500,
    "location": "Mumbai, Maharashtra",
    "id": 4
  },
  {
    "name": "Versova Beach",
    "description": "A quieter beach in Mumbai, known for its fishing community and cleanliness drives.",
    "latitude": 19.1378,
    "longitude": 72.7985,
    "state": "Maharashtra",
    "city": "Mumbai",
    "is_active": true,
    "image_url": "https://res.cloudinary.com/duouemoop/image/upload/v1743533363/5_tbpfre.jpg",
    "is_favorite": false,
    "rating": 4.3,
    "view_count": 900,
    "location": "Mumbai, Maharashtra",
    "id": 5
  },
  {
    "name": "Baga Beach",
    "description": "A lively beach in Goa, popular for its nightlife and water sports.",
    "latitude": 15.5524,
    "longitude": 73.7516,
    "state": "Goa",
    "city": "Baga",
    "is_active": true,
    "image_url": "https://res.cloudinary.com/duouemoop/image/upload/v1743533364/6_jptivp.jpg",
    "is_favorite": true,
    "rating": 4.8,
    "view_count": 3000,
    "location": "Baga, Goa",
    "id": 6
  },
  {
    "name": "Anjuna Beach",
    "description": "A popular beach in Goa, known for its trance parties and flea market.",
    "latitude": 15.5873,
    "longitude": 73.7438,
    "state": "Goa",
    "city": "Anjuna",
    "is_active": true,
    "image_url": "https://res.cloudinary.com/duouemoop/image/upload/v1743533363/7_wp1oic.jpg",
    "is_favorite": false,
    "rating": 4.5,
    "view_count": 2200,
    "location": "Anjuna, Goa",
    "id": 7
  },
  {
    "name": "Kovalam Beach",
    "description": "A famous beach in Kerala, known for its lighthouse and surfing opportunities.",
    "latitude": 8.4000,
    "longitude": 76.9784,
    "state": "Kerala",
    "city": "Kovalam",
    "is_active": true,
    "image_url": "https://res.cloudinary.com/duouemoop/image/upload/v1743533364/8_fkrs59.jpg",
    "is_favorite": false,
    "rating": 4.7,
    "view_count": 1800,
    "location": "Kovalam, Kerala",
    "id": 8
  },
  {
    "name": "Varkala Beach",
    "description": "A beautiful cliffside beach in Kerala, also known as Papanasam Beach.",
    "latitude": 8.7333,
    "longitude": 76.7167,
    "state": "Kerala",
    "city": "Varkala",
    "is_active": true,
    "image_url": "https://res.cloudinary.com/duouemoop/image/upload/v1743533366/9_sn9meo.jpg",
    "is_favorite": false,
    "rating": 4.6,
    "view_count": 1600,
    "location": "Varkala, Kerala",
    "id": 9
  },
  {
    "name": "Marina Beach",
    "description": "A beautiful beach in Chennai, one of the longest urban beaches in the world.",
    "latitude": 13.0499,
    "longitude": 80.282,
    "state": "Tamil Nadu",
    "city": "Chennai",
    "is_active": true,
    "image_url": "https://res.cloudinary.com/duouemoop/image/upload/v1743533368/10_be9bjb.jpg",
    "is_favorite": true,
    "rating": 4.4,
    "view_count": 3500,
    "location": "Chennai, Tamil Nadu",
    "id": 10
  },
  {
    "name": "Elliot Beach",
    "description": "A calm and serene beach in Chennai, also known as Besant Nagar Beach.",
    "latitude": 12.9987,
    "longitude": 80.2715,
    "state": "Tamil Nadu",
    "city": "Chennai",
    "is_active": true,
    "image_url": "https://res.cloudinary.com/duouemoop/image/upload/v1743533368/11_u9p7qs.jpg",
    "is_favorite": false,
    "rating": 4.3,
    "view_count": 1400,
    "location": "Chennai, Tamil Nadu",
    "id": 11
  },
  {
    "name": "Digha Beach",
    "description": "A famous beach in West Bengal, known for its flat hard beaches and gentle waves.",
    "latitude": 21.6278,
    "longitude": 87.5090,
    "state": "West Bengal",
    "city": "Digha",
    "is_active": true,
    "image_url": "https://res.cloudinary.com/duouemoop/image/upload/v1743533380/12_ow1ppb.png",
    "is_favorite": false,
    "rating": 4.4,
    "view_count": 2000,
    "location": "Digha, West Bengal",
    "id": 12
  },
  {
    "name": "Mandarmani Beach",
    "description": "A long and less crowded beach in West Bengal, known for its scenic beauty.",
    "latitude": 21.7696,
    "longitude": 87.6689,
    "state": "West Bengal",
    "city": "Mandarmani",
    "is_active": true,
    "image_url": "https://res.cloudinary.com/duouemoop/image/upload/v1743533367/13_f2c1zq.webp",
    "is_favorite": false,
    "rating": 4.5,
    "view_count": 1100,
    "location": "Mandarmani, West Bengal",
    "id": 13
  },
  {
    "name": "Puri Beach",
    "description": "A sacred beach near the Jagannath Temple in Odisha.",
    "latitude": 19.7983,
    "longitude": 85.8249,
    "state": "Odisha",
    "city": "Puri",
    "is_active": true,
    "image_url": "https://res.cloudinary.com/duouemoop/image/upload/v1743533375/14_tnmnus.jpg",
    "is_favorite": false,
    "rating": 4.6,
    "view_count": 2100,
    "location": "Puri, Odisha",
    "id": 14
  },
  {
    "name": "Chandipur Beach",
    "description": "A unique beach in Odisha, known for its disappearing sea phenomenon.",
    "latitude": 21.4716,
    "longitude": 87.0170,
    "state": "Odisha",
    "city": "Chandipur",
    "is_active": true,
    "image_url": "https://res.cloudinary.com/duouemoop/image/upload/v1743533376/15_ktp4pa.jpg",
    "is_favorite": false,
    "rating": 4.5,
    "view_count": 1300,
    "location": "Chandipur, Odisha",
    "id": 15
  }
]
